id;data;godz;rok;latitude;longitude;nazwa;adres;adres2
1;29.12.2023;18:51:18;2023;50.0528222222222;19.9363027777778;Krakow;https://drive.google.com/thumbnail?id=10tMDcfjms1zTyDAzGLMQVQtjzsyw765q;https://drive.google.com/file/d/10tMDcfjms1zTyDAzGLMQVQtjzsyw765q/view?usp=sharing
10;29.12.2023;12:29:19;2023;50.0532222222222;19.8932027777778;Krakow;https://drive.google.com/thumbnail?id=1Jpz95HSZVEzSHXtHPDdQKe4A6qcI93wF;https://drive.google.com/file/d/1Jpz95HSZVEzSHXtHPDdQKe4A6qcI93wF/view?usp=sharing
11;29.12.2023;18:32:32;2023;50.0548138888889;19.9324444444444;Krakow;https://drive.google.com/thumbnail?id=1KLZ6-OWCFC4dxQhI-cOv0RDc48FmDQn5;https://drive.google.com/file/d/1KLZ6-OWCFC4dxQhI-cOv0RDc48FmDQn5/view?usp=sharing
12;29.12.2023;19:56:32;2023;50.0593138888889;19.9398027777778;Krakow;https://drive.google.com/thumbnail?id=1QPNexfAtkuIrGFlzP-kxdVi8T6M6aFz6;https://drive.google.com/file/d/1QPNexfAtkuIrGFlzP-kxdVi8T6M6aFz6/view?usp=sharing
13;28.12.2023;13:59:35;2023;50.0624111111111;19.9380388888889;Krakow;https://drive.google.com/thumbnail?id=1V0ZrytlG55W0A8QGaWdAaacvGJKX06rt;https://drive.google.com/file/d/1V0ZrytlG55W0A8QGaWdAaacvGJKX06rt/view?usp=sharing
14;29.12.2023;14:19:16;2023;50.0330805555556;19.9112444444444;Krakow;https://drive.google.com/thumbnail?id=1YQZ5uTCDz2V5hJdsVYsiIBrxHyAvknBu;https://drive.google.com/file/d/1YQZ5uTCDz2V5hJdsVYsiIBrxHyAvknBu/view?usp=sharing
15;28.12.2023;19:52:11;2023;50.0620166666667;19.9384111111111;Krakow;https://drive.google.com/thumbnail?id=1Z3Pi4JM5js2egTsrYSBdTWO3wzn1qu8Q;https://drive.google.com/file/d/1Z3Pi4JM5js2egTsrYSBdTWO3wzn1qu8Q/view?usp=sharing
16;29.12.2023;18:42:23;2023;50.0533861111111;19.9330277777778;Krakow;https://drive.google.com/thumbnail?id=1_kid7bEcsA529YTuOLFySBKVDR_Q78Y2;https://drive.google.com/file/d/1_kid7bEcsA529YTuOLFySBKVDR_Q78Y2/view?usp=sharing
17;30.12.2023;11:26:39;2023;50.0643583333333;19.9445527777778;Krakow;https://drive.google.com/thumbnail?id=1_zuMmtW-NOHs71p2RWj3D9rVTYFGDAqe;https://drive.google.com/file/d/1_zuMmtW-NOHs71p2RWj3D9rVTYFGDAqe/view?usp=sharing
18;28.12.2023;19:06:21;2023;50.0618138888889;19.9367055555556;Krakow;https://drive.google.com/thumbnail?id=1bzzvpBRJrg6Wv6szoSVNRXAQ1ztsnbq0;https://drive.google.com/file/d/1bzzvpBRJrg6Wv6szoSVNRXAQ1ztsnbq0/view?usp=sharing
19;28.12.2023;19:43:21;2023;50.06205;19.9383416666667;Krakow;https://drive.google.com/thumbnail?id=1cTTBu0dAphhXUjNcSf9fysD1_F3xNztP;https://drive.google.com/file/d/1cTTBu0dAphhXUjNcSf9fysD1_F3xNztP/view?usp=sharing
2;28.12.2023;19:41:25;2023;50.0617555555556;19.9378055555556;Krakow;https://drive.google.com/thumbnail?id=13KnvWOs-zyjAHA97QIa8PMAbc0hvkxRS;https://drive.google.com/file/d/13KnvWOs-zyjAHA97QIa8PMAbc0hvkxRS/view?usp=sharing
20;29.12.2023;12:30:32;2023;50.0532444444444;19.8932888888889;Krakow;https://drive.google.com/thumbnail?id=1iBkl8b7WLHEHHaXMmYZZS1hL7uW43Ogz;https://drive.google.com/file/d/1iBkl8b7WLHEHHaXMmYZZS1hL7uW43Ogz/view?usp=sharing
21;28.12.2023;19:26:41;2023;50.0617916666667;19.9364305555556;Krakow;https://drive.google.com/thumbnail?id=1iuzdfTDjij2pml8UfY2vRSSbK1lLR_ny;https://drive.google.com/file/d/1iuzdfTDjij2pml8UfY2vRSSbK1lLR_ny/view?usp=sharing
22;28.12.2023;19:34:26;2023;50.0621;19.9372;Krakow;https://drive.google.com/thumbnail?id=1kMujeYyvkn_QNg19ucRon8tU8Kl_CYes;https://drive.google.com/file/d/1kMujeYyvkn_QNg19ucRon8tU8Kl_CYes/view?usp=sharing
23;28.12.2023;19:06:03;2023;50.0618083333333;19.9367111111111;Krakow;https://drive.google.com/thumbnail?id=1nMTNdHOOLCksI0DrairH-_uRfQ7uQ7V2;https://drive.google.com/file/d/1nMTNdHOOLCksI0DrairH-_uRfQ7uQ7V2/view?usp=sharing
24;29.12.2023;18:32:09;2023;50.0547972222222;19.9324972222222;Krakow;https://drive.google.com/thumbnail?id=1s8RRf0qicVEd7s0ZP8C28z_D4iTAOFKg;https://drive.google.com/file/d/1s8RRf0qicVEd7s0ZP8C28z_D4iTAOFKg/view?usp=sharing
25;29.12.2023;14:20:16;2023;50.0330611111111;19.9112166666667;Krakow;https://drive.google.com/thumbnail?id=1tOjamb_XIkAnpdIllqi_8ZkN1ADLO184;https://drive.google.com/file/d/1tOjamb_XIkAnpdIllqi_8ZkN1ADLO184/view?usp=sharing
26;29.12.2023;18:16:38;2023;50.0546583333333;19.9381194444444;Krakow;https://drive.google.com/thumbnail?id=1vXKYwmoOsN2HddHSOAEZ4Y2VPG7TB841;https://drive.google.com/file/d/1vXKYwmoOsN2HddHSOAEZ4Y2VPG7TB841/view?usp=sharing
27;29.12.2023;14:19:41;2023;50.0330805555556;19.9112416666667;Krakow;https://drive.google.com/thumbnail?id=1yBZS_aGg75IoKkaxMsnF6wlldNAeFoxr;https://drive.google.com/file/d/1yBZS_aGg75IoKkaxMsnF6wlldNAeFoxr/view?usp=sharing
28;29.12.2023;14:40:36;2023;50.03495;19.9093138888889;Krakow;https://drive.google.com/thumbnail?id=1ytolC72iQuF336JPxKJYodBv0UDX18tw;https://drive.google.com/file/d/1ytolC72iQuF336JPxKJYodBv0UDX18tw/view?usp=sharing
3;29.12.2023;14:14:19;2023;50.0333583333333;19.9119638888889;Krakow;https://drive.google.com/thumbnail?id=13LDf9AQI0ufmct_Zq89tb67oOesS3Eqk;https://drive.google.com/file/d/13LDf9AQI0ufmct_Zq89tb67oOesS3Eqk/view?usp=sharing
4;29.12.2023;18:21:28;2023;50.0552;19.9360611111111;Krakow;https://drive.google.com/thumbnail?id=15jLEgUJRxLltYHAK4hn3gMO4s0wtf2FQ;https://drive.google.com/file/d/15jLEgUJRxLltYHAK4hn3gMO4s0wtf2FQ/view?usp=sharing
5;29.12.2023;20:44:07;2023;50.0573416666667;19.9380166666667;Krakow;https://drive.google.com/thumbnail?id=17oUSx4wEoA8ipFzb7_UbGif5wFGa3br7;https://drive.google.com/file/d/17oUSx4wEoA8ipFzb7_UbGif5wFGa3br7/view?usp=sharing
6;29.12.2023;12:17:42;2023;50.0540666666667;19.8932444444444;Krakow;https://drive.google.com/thumbnail?id=1Cr_2pZ4kf4V1K0-eq408H4162CXRrrvg;https://drive.google.com/file/d/1Cr_2pZ4kf4V1K0-eq408H4162CXRrrvg/view?usp=sharing
7;28.12.2023;19:48:17;2023;50.0620305555556;19.9383194444444;Krakow;https://drive.google.com/thumbnail?id=1FzvzcPABvpRWqjsb4_NeEFmYWH-ORVei;https://drive.google.com/file/d/1FzvzcPABvpRWqjsb4_NeEFmYWH-ORVei/view?usp=sharing
8;28.12.2023;19:24:26;2023;50.0613138888889;19.9364805555556;Krakow;https://drive.google.com/thumbnail?id=1Gl_SLZiMBtBRRwLWYTnCiLjO_i5R70a1;https://drive.google.com/file/d/1Gl_SLZiMBtBRRwLWYTnCiLjO_i5R70a1/view?usp=sharing
9;29.12.2023;15:44:19;2023;50.0561055555556;19.9368444444444;Krakow;https://drive.google.com/thumbnail?id=1GmOaMqv2U1Ot4NGPW5F_wKnaAydXyIs0;https://drive.google.com/file/d/1GmOaMqv2U1Ot4NGPW5F_wKnaAydXyIs0/view?usp=sharing
29;25.02.2021;19:04:58;2021;52.1655769722222;21.0891149722222;Na codzien;https://drive.google.com/thumbnail?id=1KEgxiQsHkA9EDp9Lps60tDgepNgTWqyG;https://drive.google.com/file/d/1KEgxiQsHkA9EDp9Lps60tDgepNgTWqyG/view?usp=sharing
30;25.02.2021;19:04:51;2021;52.1655859722222;21.089117;Na codzien;https://drive.google.com/thumbnail?id=1KICqdHcSGvmqG3gpQDS2MvYwtCIxiC4n;https://drive.google.com/file/d/1KICqdHcSGvmqG3gpQDS2MvYwtCIxiC4n/view?usp=sharing
31;15.01.2021;16:33:28;2021;51.2393879722222;22.5582999722222;Na codzien;https://drive.google.com/thumbnail?id=1Pulk2jbTWApnrB2y3WyIJbv7wiyHcNqi;https://drive.google.com/file/d/1Pulk2jbTWApnrB2y3WyIJbv7wiyHcNqi/view?usp=sharing
32;25.02.2021;19:05:45;2021;52.165827;21.089057;Na codzien;https://drive.google.com/thumbnail?id=1_jGtwZhrbL41-U5mHVnM8iahMhrPGe43;https://drive.google.com/file/d/1_jGtwZhrbL41-U5mHVnM8iahMhrPGe43/view?usp=sharing
33;25.02.2021;19:04:29;2021;52.16554;21.0890969722222;Na codzien;https://drive.google.com/thumbnail?id=1fmsJhW-aWW1uAvyH-nWYBBsMl6GFP7wQ;https://drive.google.com/file/d/1fmsJhW-aWW1uAvyH-nWYBBsMl6GFP7wQ/view?usp=sharing
34;13.06.2021;19:16:36;2021;52.231478;21.1146059722222;Na codzien;https://drive.google.com/thumbnail?id=19cv4pbjGPsYkc9sLaC27B5QQyXOW_zTT;https://drive.google.com/file/d/19cv4pbjGPsYkc9sLaC27B5QQyXOW_zTT/view?usp=sharing
35;20.06.2021;15:46:23;2021;52.248063;21.0137789722222;Na codzien;https://drive.google.com/thumbnail?id=1fpR0WaDXiNRpsD6IGskT4B53P6WN2EQW;https://drive.google.com/file/d/1fpR0WaDXiNRpsD6IGskT4B53P6WN2EQW/view?usp=sharing
36;13.06.2021;19:16:30;2021;52.23147;21.1146409722222;Na codzien;https://drive.google.com/thumbnail?id=1qxiivKkLT9SVPt1Mmkr5VFbXmfjAmSZT;https://drive.google.com/file/d/1qxiivKkLT9SVPt1Mmkr5VFbXmfjAmSZT/view?usp=sharing
37;04.10.2020;18:30:16;2020;51.1330039722222;23.4732769722222;Na codzien;https://drive.google.com/thumbnail?id=1vsx9zLzQyxqHrkdKQgfd_s3TjZzm83Ll;https://drive.google.com/file/d/1vsx9zLzQyxqHrkdKQgfd_s3TjZzm83Ll/view?usp=sharing
38;23.02.2021;14:57:50;2021;50.060242;19.935023;Krakow;https://drive.google.com/thumbnail?id=1vPu-7VmTkbC3Z8dIKLevCQs8D3Qjbnc6;https://drive.google.com/file/d/1vPu-7VmTkbC3Z8dIKLevCQs8D3Qjbnc6/view?usp=sharing
39;25.09.2021;14:22:00;2021;50.054096;19.933616;Krakow;https://drive.google.com/thumbnail?id=1CATPTBJZ3fQOAe5Pkc6l_YWc25FCIvZq;https://drive.google.com/file/d/1CATPTBJZ3fQOAe5Pkc6l_YWc25FCIvZq/view?usp=sharing
40;26.09.2021;11:10:51;2021;50.052731;19.936395;Krakow;https://drive.google.com/thumbnail?id=1JuwBdNNvAfjXiVzLJfYnOjK3wc5RAdDK;https://drive.google.com/file/d/1JuwBdNNvAfjXiVzLJfYnOjK3wc5RAdDK/view?usp=sharing
41;25.09.2021;21:06:02;2021;50.0495459722222;19.933558;Krakow;https://drive.google.com/thumbnail?id=1PGvxo6tziaGbQGIdHOSaLwjr9_Dwp584;https://drive.google.com/file/d/1PGvxo6tziaGbQGIdHOSaLwjr9_Dwp584/view?usp=sharing
42;25.09.2021;13:49:00;2021;50.061632;19.937929;Krakow;https://drive.google.com/thumbnail?id=1XvS7X2DUFCg-lZa-xNQIxXQs-Cn8qq43;https://drive.google.com/file/d/1XvS7X2DUFCg-lZa-xNQIxXQs-Cn8qq43/view?usp=sharing
43;25.09.2021;12:41:53;2021;50.0645319722222;19.941554;Krakow;https://drive.google.com/thumbnail?id=1bMLDHCbynknZxk8uPL2bBQlU5QdOkb_E;https://drive.google.com/file/d/1bMLDHCbynknZxk8uPL2bBQlU5QdOkb_E/view?usp=sharing
44;25.09.2021;16:08:51;2021;50.0502279722222;19.932296;Krakow;https://drive.google.com/thumbnail?id=1w16tB3c78ORv4V9q2uYHfCSAtz4YNdI8;https://drive.google.com/file/d/1w16tB3c78ORv4V9q2uYHfCSAtz4YNdI8/view?usp=sharing
45;26.09.2021;12:12:19;2021;50.054321;19.93731;Krakow;https://drive.google.com/thumbnail?id=1-zs74OPt2r0pwYvzfkaMjeXRFAXe4PNE;https://drive.google.com/file/d/1-zs74OPt2r0pwYvzfkaMjeXRFAXe4PNE/view?usp=sharing
46;26.09.2021;11:56:07;2021;50.054476;19.936716;Krakow;https://drive.google.com/thumbnail?id=161ArduO3-YYOTV3BDDt3a31tSpUqo_vs;https://drive.google.com/file/d/161ArduO3-YYOTV3BDDt3a31tSpUqo_vs/view?usp=sharing
47;26.09.2021;12:17:11;2021;50.05458;19.9376609722222;Krakow;https://drive.google.com/thumbnail?id=17fPD-vcKAT_9R2oMaDCIN0TaVSHc4-jz;https://drive.google.com/file/d/17fPD-vcKAT_9R2oMaDCIN0TaVSHc4-jz/view?usp=sharing
48;26.09.2021;12:20:41;2021;50.054619;19.9377609722222;Krakow;https://drive.google.com/thumbnail?id=14L_oOr9hocVlf5-OeFylXS1l74O1P-wI;https://drive.google.com/file/d/14L_oOr9hocVlf5-OeFylXS1l74O1P-wI/view?usp=sharing
49;26.09.2021;15:27:57;2021;50.0615129722222;19.9385779722222;Krakow;https://drive.google.com/thumbnail?id=1-vBR7z7GyES26u7TFjZDQFbuWuPhrAS8;https://drive.google.com/file/d/1-vBR7z7GyES26u7TFjZDQFbuWuPhrAS8/view?usp=sharing
50;26.09.2021;15:28:01;2021;50.0615049722222;19.938613;Krakow;https://drive.google.com/thumbnail?id=153w6aFxEat4QZIJTWcgAt1M7M1qZCe5v;https://drive.google.com/file/d/153w6aFxEat4QZIJTWcgAt1M7M1qZCe5v/view?usp=sharing
51;26.09.2021;12:33:35;2021;50.05442;19.937646;Krakow;https://drive.google.com/thumbnail?id=18ASqa7rcJkM1dVssscYCx_gDTnLwVvqS;https://drive.google.com/file/d/18ASqa7rcJkM1dVssscYCx_gDTnLwVvqS/view?usp=sharing
52;26.09.2021;15:34:22;2021;50.063571;19.9418679722222;Krakow;https://drive.google.com/thumbnail?id=1LLFwGrUYM80nDfOZdb3m083VreHhwF8H;https://drive.google.com/file/d/1LLFwGrUYM80nDfOZdb3m083VreHhwF8H/view?usp=sharing
53;26.09.2021;13:17:31;2021;50.0609809722222;19.9381799722222;Krakow;https://drive.google.com/thumbnail?id=1f2UiPtlOnFKktOgXzTrptFvo7tA_anvy;https://drive.google.com/file/d/1f2UiPtlOnFKktOgXzTrptFvo7tA_anvy/view?usp=sharing
54;26.09.2021;15:39:39;2021;50.0642759722222;19.942537;Krakow;https://drive.google.com/thumbnail?id=1tqMrdAIMNDZbX1SSz02Sv3ZGw4wt7CKd;https://drive.google.com/file/d/1tqMrdAIMNDZbX1SSz02Sv3ZGw4wt7CKd/view?usp=sharing
55;12.09.2021;12:13:31;2021;49.4312779722222;22.40933;Solina;https://drive.google.com/thumbnail?id=1UszT8QdQ-un_bindciUv61B16u_shssZ;https://drive.google.com/file/d/1UszT8QdQ-un_bindciUv61B16u_shssZ/view?usp=sharing
56;12.09.2021;15:14:42;2021;49.7818279722222;22.770199;Solina;https://drive.google.com/thumbnail?id=1rhB72uLrRCjvesssstQY6XdaxnysUph-;https://drive.google.com/file/d/1rhB72uLrRCjvesssstQY6XdaxnysUph-/view?usp=sharing
57;12.09.2021;15:14:56;2021;49.7817629722222;22.7704239722222;Solina;https://drive.google.com/thumbnail?id=1uSVWIBLYWBgErZnX_X_IY275opi_HGAZ;https://drive.google.com/file/d/1uSVWIBLYWBgErZnX_X_IY275opi_HGAZ/view?usp=sharing
58;11.09.2021;18:57:11;2021;49.3910369722222;22.4581979722222;Solina;https://drive.google.com/thumbnail?id=1pfEAZNxZxA92nsVDmkL91ir83wJf9Dg-;https://drive.google.com/file/d/1pfEAZNxZxA92nsVDmkL91ir83wJf9Dg-/view?usp=sharing
59;11.09.2021;18:51:08;2021;49.3904039722222;22.4591409722222;Solina;https://drive.google.com/thumbnail?id=1ydDlLV6QMYb7LSJ7B30cEE0iMHNhXb1k;https://drive.google.com/file/d/1ydDlLV6QMYb7LSJ7B30cEE0iMHNhXb1k/view?usp=sharing
60;11.09.2021;18:29:39;2021;49.390374;22.459195;Solina;https://drive.google.com/thumbnail?id=13RzX9_mAlbx4LB5OZBiH9ObRi6Me50an;https://drive.google.com/file/d/13RzX9_mAlbx4LB5OZBiH9ObRi6Me50an/view?usp=sharing
61;11.09.2021;18:47:28;2021;49.390388;22.4591719722222;Solina;https://drive.google.com/thumbnail?id=1DgVpWe4_IrYOO-wYOwp6Yu2MFY70Ft0n;https://drive.google.com/file/d/1DgVpWe4_IrYOO-wYOwp6Yu2MFY70Ft0n/view?usp=sharing
62;11.09.2021;18:48:18;2021;49.390368;22.4591729722222;Solina;https://drive.google.com/thumbnail?id=1exZKQdS2_nxS-JUuEdF_MLuoXgnM-DMS;https://drive.google.com/file/d/1exZKQdS2_nxS-JUuEdF_MLuoXgnM-DMS/view?usp=sharing
63;11.09.2021;16:52:26;2021;49.3919539722222;22.458887;Solina;https://drive.google.com/thumbnail?id=1CAUfwviwBdSpZOxxjArqyIAB4mscmzQ3;https://drive.google.com/file/d/1CAUfwviwBdSpZOxxjArqyIAB4mscmzQ3/view?usp=sharing
64;11.09.2021;12:14:12;2021;49.396053;22.4394269722222;Solina;https://drive.google.com/thumbnail?id=1D_U7gb03_DfsmOu2x62EATwl-Uz1Xewy;https://drive.google.com/file/d/1D_U7gb03_DfsmOu2x62EATwl-Uz1Xewy/view?usp=sharing
65;11.09.2021;12:14:35;2021;49.3960829722222;22.439208;Solina;https://drive.google.com/thumbnail?id=1ZFVRo2sLg2Ic_G9UjYdEhDiHr3Ew1fP7;https://drive.google.com/file/d/1ZFVRo2sLg2Ic_G9UjYdEhDiHr3Ew1fP7/view?usp=sharing
66;11.09.2021;14:09:36;2021;49.3814399722222;22.4308529722222;Solina;https://drive.google.com/thumbnail?id=1feaZX4rYCaGo95lT_88UL6IfrGjKkFLe;https://drive.google.com/file/d/1feaZX4rYCaGo95lT_88UL6IfrGjKkFLe/view?usp=sharing
67;10.09.2021;14:21:40;2021;49.39694;22.450378;Solina;https://drive.google.com/thumbnail?id=12Et8PwlZHpmTcxBwSPWkIeSWr43_6s8v;https://drive.google.com/file/d/12Et8PwlZHpmTcxBwSPWkIeSWr43_6s8v/view?usp=sharing
68;10.09.2021;15:42:56;2021;49.393272;22.452579;Solina;https://drive.google.com/thumbnail?id=19ouC58ctS4v-mUAxfwr10p3LDYlWz-rJ;https://drive.google.com/file/d/19ouC58ctS4v-mUAxfwr10p3LDYlWz-rJ/view?usp=sharing
69;10.09.2021;16:16:01;2021;49.3959589722222;22.445492;Solina;https://drive.google.com/thumbnail?id=1BerdJzrHK5GUZfGEGT1GKBLFm1CRfr8W;https://drive.google.com/file/d/1BerdJzrHK5GUZfGEGT1GKBLFm1CRfr8W/view?usp=sharing
70;10.09.2021;15:32:19;2021;49.392879;22.456485;Solina;https://drive.google.com/thumbnail?id=1l7Wl_Nzmh7iAFitRqPKMOkmgEoRkuRE6;https://drive.google.com/file/d/1l7Wl_Nzmh7iAFitRqPKMOkmgEoRkuRE6/view?usp=sharing
71;10.09.2021;14:22:38;2021;49.3969599722222;22.450402;Solina;https://drive.google.com/thumbnail?id=1mW8Wpo03dP4fHRfSRj_v2SHW_n7yCQh5;https://drive.google.com/file/d/1mW8Wpo03dP4fHRfSRj_v2SHW_n7yCQh5/view?usp=sharing
72;10.09.2021;16:14:46;2021;49.3960289722222;22.445516;Solina;https://drive.google.com/thumbnail?id=1poxdsi7VoosHz9FK0n119NsFHGMhQhRw;https://drive.google.com/file/d/1poxdsi7VoosHz9FK0n119NsFHGMhQhRw/view?usp=sharing
73;09.09.2021;16:32:02;2021;49.378005;22.452079;Solina;https://drive.google.com/thumbnail?id=12cxHSmdP1_IVctPA9Q0O3tdSOwM7PjfZ;https://drive.google.com/file/d/12cxHSmdP1_IVctPA9Q0O3tdSOwM7PjfZ/view?usp=sharing
74;09.09.2021;15:40:57;2021;49.391905;22.456997;Solina;https://drive.google.com/thumbnail?id=18rDiurTEP_Q5b-k7vRVwO_1axHmiObRT;https://drive.google.com/file/d/18rDiurTEP_Q5b-k7vRVwO_1axHmiObRT/view?usp=sharing
75;09.09.2021;16:12:49;2021;49.3938739722222;22.4537089722222;Solina;https://drive.google.com/thumbnail?id=1HkDe_nZFDQopup5KTKP23YE_vqXKTBz0;https://drive.google.com/file/d/1HkDe_nZFDQopup5KTKP23YE_vqXKTBz0/view?usp=sharing
76;09.09.2021;16:17:07;2021;49.3950809722222;22.447476;Solina;https://drive.google.com/thumbnail?id=1OwAWeMkL1DR_T4LFH_MytENomk9_LjKG;https://drive.google.com/file/d/1OwAWeMkL1DR_T4LFH_MytENomk9_LjKG/view?usp=sharing
77;09.09.2021;16:12:14;2021;49.393549;22.4547179722222;Solina;https://drive.google.com/thumbnail?id=1RDD8-rK2DAIeONoTEMv5cvA4Ws4CbOSJ;https://drive.google.com/file/d/1RDD8-rK2DAIeONoTEMv5cvA4Ws4CbOSJ/view?usp=sharing
78;09.09.2021;16:40:52;2021;49.3736129722222;22.4593379722222;Solina;https://drive.google.com/thumbnail?id=1bDGmBjEGhWa-1rhc33kQX8EEB_mDF7QZ;https://drive.google.com/file/d/1bDGmBjEGhWa-1rhc33kQX8EEB_mDF7QZ/view?usp=sharing
79;09.09.2021;16:18:38;2021;49.3932149722222;22.4466689722222;Solina;https://drive.google.com/thumbnail?id=1rux-CHM7cHB2fvVecGTDXT7VyXLkxiBC;https://drive.google.com/file/d/1rux-CHM7cHB2fvVecGTDXT7VyXLkxiBC/view?usp=sharing
80;09.09.2021;11:37:45;2021;49.391801;22.4587369722222;Solina;https://drive.google.com/thumbnail?id=18jmbK1NZcJAMnTSFe9J_gJODdo55fmpE;https://drive.google.com/file/d/18jmbK1NZcJAMnTSFe9J_gJODdo55fmpE/view?usp=sharing
81;09.09.2021;15:10:25;2021;49.3915199722222;22.458123;Solina;https://drive.google.com/thumbnail?id=1JsfvlcONahE6hPknCUZ9mfLjM0o-kk0I;https://drive.google.com/file/d/1JsfvlcONahE6hPknCUZ9mfLjM0o-kk0I/view?usp=sharing
82;09.09.2021;10:55:16;2021;49.390717;22.458648;Solina;https://drive.google.com/thumbnail?id=11NWaj55yeVmasIYTC0DD2cxujA8XhXEE;https://drive.google.com/file/d/11NWaj55yeVmasIYTC0DD2cxujA8XhXEE/view?usp=sharing
83;09.09.2021;11:00:12;2021;49.3895789722222;22.46093;Solina;https://drive.google.com/thumbnail?id=1E8Pr7xT0wvkqxJpuzqFmu8a7cE_Z_lE-;https://drive.google.com/file/d/1E8Pr7xT0wvkqxJpuzqFmu8a7cE_Z_lE-/view?usp=sharing
84;09.09.2021;10:53:47;2021;49.390739;22.458583;Solina;https://drive.google.com/thumbnail?id=16kqzIZqvQ14Xgjq8MHeLsLCC5EX83i_P;https://drive.google.com/file/d/16kqzIZqvQ14Xgjq8MHeLsLCC5EX83i_P/view?usp=sharing
85;09.09.2021;10:49:51;2021;49.3912029722222;22.458704;Solina;https://drive.google.com/thumbnail?id=17cRgkJp6M0Y3jTQmZm3FWna5LZYlpC2W;https://drive.google.com/file/d/17cRgkJp6M0Y3jTQmZm3FWna5LZYlpC2W/view?usp=sharing
86;09.09.2021;10:43:04;2021;49.391697;22.4590989722222;Solina;https://drive.google.com/thumbnail?id=1a7hUeU4nQdbe2oUHBLqxTQZLoZyu-qDw;https://drive.google.com/file/d/1a7hUeU4nQdbe2oUHBLqxTQZLoZyu-qDw/view?usp=sharing
87;09.09.2021;10:48:37;2021;49.3912049722222;22.4587129722222;Solina;https://drive.google.com/thumbnail?id=17sUGZ8Fb-p2mSOTFWx3Bvb36fD60z-pb;https://drive.google.com/file/d/17sUGZ8Fb-p2mSOTFWx3Bvb36fD60z-pb/view?usp=sharing
88;08.09.2021;10:00:03;2021;50.716951;23.2520689722222;Solina;https://drive.google.com/thumbnail?id=12JDb8uR_xPRN7E80w0mRfMGThbQJtW9J;https://drive.google.com/file/d/12JDb8uR_xPRN7E80w0mRfMGThbQJtW9J/view?usp=sharing
89;08.09.2021;15:36:59;2021;49.776265;22.6500039722222;Solina;https://drive.google.com/thumbnail?id=1Bz15m7tZSPwWWqZwNuQscEsoaBvwAeSD;https://drive.google.com/file/d/1Bz15m7tZSPwWWqZwNuQscEsoaBvwAeSD/view?usp=sharing
90;09.09.2021;10:30:42;2021;49.394244;22.458265;Solina;https://drive.google.com/thumbnail?id=1XtA2tBsZdosb1UjolJxeAsR5MZz2uQh3;https://drive.google.com/file/d/1XtA2tBsZdosb1UjolJxeAsR5MZz2uQh3/view?usp=sharing
91;08.09.2021;17:53:25;2021;49.405957;22.464618;Solina;https://drive.google.com/thumbnail?id=1_WaI6EXQ_yZ7_i6lO72qeRrCujrPlzgv;https://drive.google.com/file/d/1_WaI6EXQ_yZ7_i6lO72qeRrCujrPlzgv/view?usp=sharing
92;08.09.2021;14:57:02;2021;49.7765079722222;22.6491329722222;Solina;https://drive.google.com/thumbnail?id=1plRosOahDYFAhrSv6xiO4RUjwyvzxXq9;https://drive.google.com/file/d/1plRosOahDYFAhrSv6xiO4RUjwyvzxXq9/view?usp=sharing
93;09.09.2021;10:42:26;2021;49.391688;22.4591099722222;Solina;https://drive.google.com/thumbnail?id=1wnvVj2LME0of_PdVVghdwHplgfzoOI4B;https://drive.google.com/file/d/1wnvVj2LME0of_PdVVghdwHplgfzoOI4B/view?usp=sharing
94;08.09.2021;15:44:05;2021;49.777655;22.6520779722222;Solina;https://drive.google.com/thumbnail?id=1ygPmRq_8apQcBX9gExrT34GCjrsX6fBY;https://drive.google.com/file/d/1ygPmRq_8apQcBX9gExrT34GCjrsX6fBY/view?usp=sharing
95;28.02.2022;12:28:36;2022;50.0833379722222;14.4344249722222;Praga;https://drive.google.com/thumbnail?id=1EUWU9ba2fBwLcWSBKwxQJQ0voGsqrvrO;https://drive.google.com/file/d/1EUWU9ba2fBwLcWSBKwxQJQ0voGsqrvrO/view?usp=sharing
96;27.02.2022;19:34:27;2022;50.0883279722222;14.392967;Praga;https://drive.google.com/thumbnail?id=1MJOXbDbDDLDooVq1i6VRd73J28j_ufCy;https://drive.google.com/file/d/1MJOXbDbDDLDooVq1i6VRd73J28j_ufCy/view?usp=sharing
97;28.02.2022;09:52:52;2022;50.087535;14.4053609722222;Praga;https://drive.google.com/thumbnail?id=1z5gten1s5qjDMQTj0mO57INoXlXFWFrw;https://drive.google.com/file/d/1z5gten1s5qjDMQTj0mO57INoXlXFWFrw/view?usp=sharing
98;27.02.2022;19:33:57;2022;50.088354;14.3929179722222;Praga;https://drive.google.com/thumbnail?id=1G8XcoiiRrF1jzBW076hB8dK_ysvCetDl;https://drive.google.com/file/d/1G8XcoiiRrF1jzBW076hB8dK_ysvCetDl/view?usp=sharing
99;27.02.2022;18:21:25;2022;50.0894059722222;14.39896;Praga;https://drive.google.com/thumbnail?id=17uqE_JmSSYhcouoVY0Ok44Rs-z8PF7Ek;https://drive.google.com/file/d/17uqE_JmSSYhcouoVY0Ok44Rs-z8PF7Ek/view?usp=sharing
100;27.02.2022;18:17:47;2022;50.089266;14.400292;Praga;https://drive.google.com/thumbnail?id=1Cjmqj3817oElBnvYKFO7KwJXalLAXuXE;https://drive.google.com/file/d/1Cjmqj3817oElBnvYKFO7KwJXalLAXuXE/view?usp=sharing
101;27.02.2022;18:17:39;2022;50.0891969722222;14.4001859722222;Praga;https://drive.google.com/thumbnail?id=1MprqgGPDpLqKXiHlbFvY3JPZO-hPKENh;https://drive.google.com/file/d/1MprqgGPDpLqKXiHlbFvY3JPZO-hPKENh/view?usp=sharing
102;27.02.2022;18:15:16;2022;50.0890759722222;14.401517;Praga;https://drive.google.com/thumbnail?id=1TQ5dEn34BKlv8ElWq1IC6Nv7bfygCYt-;https://drive.google.com/file/d/1TQ5dEn34BKlv8ElWq1IC6Nv7bfygCYt-/view?usp=sharing
103;27.02.2022;18:49:18;2022;50.0900079722222;14.396;Praga;https://drive.google.com/thumbnail?id=1pbrx78aRobNsbNr6uu49YC5Kzp4-2B6n;https://drive.google.com/file/d/1pbrx78aRobNsbNr6uu49YC5Kzp4-2B6n/view?usp=sharing
104;27.02.2022;14:22:53;2022;50.086959;14.4111419722222;Praga;https://drive.google.com/thumbnail?id=19IsEaUxrMR8UPYLvAc0-TC9MWmt4Aqq8;https://drive.google.com/file/d/19IsEaUxrMR8UPYLvAc0-TC9MWmt4Aqq8/view?usp=sharing
105;27.02.2022;14:45:34;2022;50.0934609722222;14.427616;Praga;https://drive.google.com/thumbnail?id=1OpcodK4VOaeZfS_4zTSGGbwIApkhKJp_;https://drive.google.com/file/d/1OpcodK4VOaeZfS_4zTSGGbwIApkhKJp_/view?usp=sharing
106;27.02.2022;14:47:02;2022;50.094343;14.427962;Praga;https://drive.google.com/thumbnail?id=1RthSbGCUjUQfJQHXtE8iQOgndwLODyux;https://drive.google.com/file/d/1RthSbGCUjUQfJQHXtE8iQOgndwLODyux/view?usp=sharing
107;27.02.2022;14:27:29;2022;50.085931;14.40989;Praga;https://drive.google.com/thumbnail?id=1U2gSdVczxKDiUTAVBXLA59bzUr1f8TyN;https://drive.google.com/file/d/1U2gSdVczxKDiUTAVBXLA59bzUr1f8TyN/view?usp=sharing
108;27.02.2022;14:20:37;2022;50.088416;14.4126259722222;Praga;https://drive.google.com/thumbnail?id=1WAjt5ZeLBgJcj45yEJ47cIPSsgSTxYr5;https://drive.google.com/file/d/1WAjt5ZeLBgJcj45yEJ47cIPSsgSTxYr5/view?usp=sharing
109;27.02.2022;14:25:48;2022;50.0855439722222;14.410819;Praga;https://drive.google.com/thumbnail?id=1_tmJUHdKjMynKCfzhsnQq6gic3pe3H9g;https://drive.google.com/file/d/1_tmJUHdKjMynKCfzhsnQq6gic3pe3H9g/view?usp=sharing
110;27.02.2022;14:45:38;2022;50.0937679722222;14.427604;Praga;https://drive.google.com/thumbnail?id=1doY00iCddf936-c89KtL19V9aA95ODo6;https://drive.google.com/file/d/1doY00iCddf936-c89KtL19V9aA95ODo6/view?usp=sharing
111;27.02.2022;14:20:32;2022;50.0884709722222;14.4126689722222;Praga;https://drive.google.com/thumbnail?id=1rt8G1Yo0qqKY8hzW4sv0Lwizk1CkERBE;https://drive.google.com/file/d/1rt8G1Yo0qqKY8hzW4sv0Lwizk1CkERBE/view?usp=sharing
112;26.02.2022;21:58:17;2022;50.0894109722222;14.4131459722222;Praga;https://drive.google.com/thumbnail?id=19Vu7spWIuHGtaf9FhjSQXwdvsSImh-nn;https://drive.google.com/file/d/19Vu7spWIuHGtaf9FhjSQXwdvsSImh-nn/view?usp=sharing
113;26.02.2022;17:59:28;2022;50.0874719722222;14.40445;Praga;https://drive.google.com/thumbnail?id=1AVg-UKmuyD5wYQdD2O6JWM2YhkXUwJgK;https://drive.google.com/file/d/1AVg-UKmuyD5wYQdD2O6JWM2YhkXUwJgK/view?usp=sharing
114;27.02.2022;13:33:21;2022;50.08876;14.415464;Praga;https://drive.google.com/thumbnail?id=1KTUiShIU_zaXECWzA4u8vMIFIzYcY9ux;https://drive.google.com/file/d/1KTUiShIU_zaXECWzA4u8vMIFIzYcY9ux/view?usp=sharing
115;26.02.2022;20:58:33;2022;50.0884649722222;14.410956;Praga;https://drive.google.com/thumbnail?id=1pgrjg6oEBOECZ26BNMEREwlf8jy3Tqlq;https://drive.google.com/file/d/1pgrjg6oEBOECZ26BNMEREwlf8jy3Tqlq/view?usp=sharing
116;26.02.2022;17:50:52;2022;50.0884519722222;14.403468;Praga;https://drive.google.com/thumbnail?id=1BlJeWOZPmzAFz7hpQXKzfct-NV7FEk0K;https://drive.google.com/file/d/1BlJeWOZPmzAFz7hpQXKzfct-NV7FEk0K/view?usp=sharing
117;26.02.2022;17:49:00;2022;50.088532;14.4021209722222;Praga;https://drive.google.com/thumbnail?id=1imFE9l_jRfSXTYyFcjP4ZjM2OFXK3zKR;https://drive.google.com/file/d/1imFE9l_jRfSXTYyFcjP4ZjM2OFXK3zKR/view?usp=sharing
118;26.02.2022;17:52:00;2022;50.088186;14.4039619722222;Praga;https://drive.google.com/thumbnail?id=1maT9swiVHRg2AB6unGpvTH4r0wR29m6q;https://drive.google.com/file/d/1maT9swiVHRg2AB6unGpvTH4r0wR29m6q/view?usp=sharing
119;26.02.2022;17:49:04;2022;50.088568;14.40212;Praga;https://drive.google.com/thumbnail?id=1n5mOy89EEqL_vFCa8O-PIjBtW_PisaK5;https://drive.google.com/file/d/1n5mOy89EEqL_vFCa8O-PIjBtW_PisaK5/view?usp=sharing
120;26.02.2022;17:44:36;2022;50.089246;14.400361;Praga;https://drive.google.com/thumbnail?id=1KTOcQigO8zZPXwPIlHlcJ2wjm0S0on_t;https://drive.google.com/file/d/1KTOcQigO8zZPXwPIlHlcJ2wjm0S0on_t/view?usp=sharing
121;26.02.2022;17:42:29;2022;50.0894929722222;14.399724;Praga;https://drive.google.com/thumbnail?id=1Kv9hlUqI52XfAOkBSPAe3eAiYP9WbHzI;https://drive.google.com/file/d/1Kv9hlUqI52XfAOkBSPAe3eAiYP9WbHzI/view?usp=sharing
122;26.02.2022;17:40:55;2022;50.089457;14.3990059722222;Praga;https://drive.google.com/thumbnail?id=1XiXKnw_6pUhTR6lJNpmD1bp5t6Md3bfU;https://drive.google.com/file/d/1XiXKnw_6pUhTR6lJNpmD1bp5t6Md3bfU/view?usp=sharing
123;26.02.2022;17:37:21;2022;50.090049;14.397622;Praga;https://drive.google.com/thumbnail?id=1azBjzpvdGEFK0iiHcnxZh7pn9Di16sgI;https://drive.google.com/file/d/1azBjzpvdGEFK0iiHcnxZh7pn9Di16sgI/view?usp=sharing
124;26.02.2022;17:49:00;2022;50.088532;14.4021209722222;Praga;https://drive.google.com/thumbnail?id=1imFE9l_jRfSXTYyFcjP4ZjM2OFXK3zKR;https://drive.google.com/file/d/1imFE9l_jRfSXTYyFcjP4ZjM2OFXK3zKR/view?usp=sharing
125;26.02.2022;17:37:33;2022;50.0898269722222;14.397678;Praga;https://drive.google.com/thumbnail?id=1r0_770GYCHl0z9G4zndMJz59AOQyT9jt;https://drive.google.com/file/d/1r0_770GYCHl0z9G4zndMJz59AOQyT9jt/view?usp=sharing
126;26.02.2022;16:23:34;2022;50.0887689722222;14.3957739722222;Praga;https://drive.google.com/thumbnail?id=19dHw5vQGfCJsntVKlZ_T22dHKdb_OII6;https://drive.google.com/file/d/19dHw5vQGfCJsntVKlZ_T22dHKdb_OII6/view?usp=sharing
127;26.02.2022;16:24:55;2022;50.089176;14.395511;Praga;https://drive.google.com/thumbnail?id=1LulxSFxE_9-d5ImdBA_ASAxvz42SMAiq;https://drive.google.com/file/d/1LulxSFxE_9-d5ImdBA_ASAxvz42SMAiq/view?usp=sharing
128;26.02.2022;16:21:40;2022;50.088895;14.396601;Praga;https://drive.google.com/thumbnail?id=1RPiIiR2mw8sj1JKhgrsbWRGLZDepvowL;https://drive.google.com/file/d/1RPiIiR2mw8sj1JKhgrsbWRGLZDepvowL/view?usp=sharing
129;26.02.2022;16:39:38;2022;50.089902;14.395981;Praga;https://drive.google.com/thumbnail?id=1yirPv6TeK8FUhNqKBSTuHOimrDU-gvEi;https://drive.google.com/file/d/1yirPv6TeK8FUhNqKBSTuHOimrDU-gvEi/view?usp=sharing
130;26.02.2022;15:28:24;2022;50.085791;14.39159;Praga;https://drive.google.com/thumbnail?id=1-shIrW_o2GWRkvIwLhgvN2czCD5zoYSj;https://drive.google.com/file/d/1-shIrW_o2GWRkvIwLhgvN2czCD5zoYSj/view?usp=sharing
131;26.02.2022;15:27:04;2022;50.085779;14.3915819722222;Praga;https://drive.google.com/thumbnail?id=1V0t6kwXl5-VzKrZP-QXR1pnwRaRvEi6Z;https://drive.google.com/file/d/1V0t6kwXl5-VzKrZP-QXR1pnwRaRvEi6Z/view?usp=sharing
132;26.02.2022;15:29:03;2022;50.0857979722222;14.3915609722222;Praga;https://drive.google.com/thumbnail?id=1zsaDdgAdnGHg1Y3M0g9Fw8rDLBQwQvWz;https://drive.google.com/file/d/1zsaDdgAdnGHg1Y3M0g9Fw8rDLBQwQvWz/view?usp=sharing
133;26.02.2022;15:24:04;2022;50.0853919722222;14.391889;Praga;https://drive.google.com/thumbnail?id=1-KjGiRINC8pN-VSucEK2MobxkUB2u30R;https://drive.google.com/file/d/1-KjGiRINC8pN-VSucEK2MobxkUB2u30R/view?usp=sharing
134;26.02.2022;15:17:21;2022;50.0839429722222;14.3941829722222;Praga;https://drive.google.com/thumbnail?id=10qolt64HvnjFQ7rbNfR_sXF58iDBETo6;https://drive.google.com/file/d/10qolt64HvnjFQ7rbNfR_sXF58iDBETo6/view?usp=sharing
135;26.02.2022;14:45:28;2022;50.0812859722222;14.4065089722222;Praga;https://drive.google.com/thumbnail?id=1VAQRiJifDZU62SqUw2Halx1wu-LxxasF;https://drive.google.com/file/d/1VAQRiJifDZU62SqUw2Halx1wu-LxxasF/view?usp=sharing
136;26.02.2022;13:56:03;2022;50.086413;14.40557;Praga;https://drive.google.com/thumbnail?id=1-E-PPIVE5c1d0x4jXJOGmnXPqQEPYJPn;https://drive.google.com/file/d/1-E-PPIVE5c1d0x4jXJOGmnXPqQEPYJPn/view?usp=sharing
137;26.02.2022;13:40:29;2022;50.0885329722222;14.407479;Praga;https://drive.google.com/thumbnail?id=1Vf7M5B4Sf1SR4e-PRRKKhpdLpMQXa-ts;https://drive.google.com/file/d/1Vf7M5B4Sf1SR4e-PRRKKhpdLpMQXa-ts/view?usp=sharing
138;26.02.2022;13:54:56;2022;50.086578;14.4061819722222;Praga;https://drive.google.com/thumbnail?id=1WPcqtAGbMkPzPlDS3nYef1zeyqMrH-F7;https://drive.google.com/file/d/1WPcqtAGbMkPzPlDS3nYef1zeyqMrH-F7/view?usp=sharing
139;26.02.2022;14:11:22;2022;50.0825299722222;14.4020659722222;Praga;https://drive.google.com/thumbnail?id=1X4IwLJ9r8_th1xSbPSxRLeSO8v1jBUPF;https://drive.google.com/file/d/1X4IwLJ9r8_th1xSbPSxRLeSO8v1jBUPF/view?usp=sharing
140;25.02.2022;18:24:40;2022;50.0877229722222;14.403055;Praga;https://drive.google.com/thumbnail?id=1LqhoRBFhWgupqlA4_EFMB6TMK9j8Lo5T;https://drive.google.com/file/d/1LqhoRBFhWgupqlA4_EFMB6TMK9j8Lo5T/view?usp=sharing
141;25.02.2022;18:24:25;2022;50.087721;14.4030559722222;Praga;https://drive.google.com/thumbnail?id=1RC6S2cKBrEWBjfHIYJm9dNbyBYYQBz6T;https://drive.google.com/file/d/1RC6S2cKBrEWBjfHIYJm9dNbyBYYQBz6T/view?usp=sharing
142;25.02.2022;17:32:09;2022;50.0911029722222;14.402176;Praga;https://drive.google.com/thumbnail?id=1i4VTkWPf7wdmZGzhj3kQLZmiL_OpFlAW;https://drive.google.com/file/d/1i4VTkWPf7wdmZGzhj3kQLZmiL_OpFlAW/view?usp=sharing
143;25.02.2022;17:55:25;2022;50.0918849722222;14.40609;Praga;https://drive.google.com/thumbnail?id=1uAPtkNKeK80nonBv0gj757H_-7S3yWTe;https://drive.google.com/file/d/1uAPtkNKeK80nonBv0gj757H_-7S3yWTe/view?usp=sharing
144;25.02.2022;17:25:31;2022;50.090454;14.4000179722222;Praga;https://drive.google.com/thumbnail?id=1y6eMbgEDESjMSWMqLWqaIeoZtQMR2jv_;https://drive.google.com/file/d/1y6eMbgEDESjMSWMqLWqaIeoZtQMR2jv_/view?usp=sharing
145;25.02.2022;16:46:16;2022;50.094712;14.415796;Praga;https://drive.google.com/thumbnail?id=1UlBq202jKzQUMBkpLLLwiCqpknvA0zBp;https://drive.google.com/file/d/1UlBq202jKzQUMBkpLLLwiCqpknvA0zBp/view?usp=sharing
146;25.02.2022;16:45:50;2022;50.094714;14.4157939722222;Praga;https://drive.google.com/thumbnail?id=1f-BHmGsI1Db9ReIKBVJJc0WI2oQfeLOB;https://drive.google.com/file/d/1f-BHmGsI1Db9ReIKBVJJc0WI2oQfeLOB/view?usp=sharing
147;25.02.2022;16:44:33;2022;50.094658;14.41577;Praga;https://drive.google.com/thumbnail?id=1tMqPM6ytBuGDW4uFYesZbCbxb0VGZFPS;https://drive.google.com/file/d/1tMqPM6ytBuGDW4uFYesZbCbxb0VGZFPS/view?usp=sharing
148;25.02.2022;16:29:38;2022;50.095773;14.4249729722222;Praga;https://drive.google.com/thumbnail?id=1_hK41DJYu9pbBLVSpIFwdc94WkCdhCUS;https://drive.google.com/file/d/1_hK41DJYu9pbBLVSpIFwdc94WkCdhCUS/view?usp=sharing
149;25.02.2022;15:18:15;2022;50.086967;14.4087739722222;Praga;https://drive.google.com/thumbnail?id=1X36qqmtUg9_lo3reUUVUntRYGbuu8QYA;https://drive.google.com/file/d/1X36qqmtUg9_lo3reUUVUntRYGbuu8QYA/view?usp=sharing
150;25.02.2022;16:20:41;2022;50.0956199722222;14.4258799722222;Praga;https://drive.google.com/thumbnail?id=1qEX_YPEBKOZSZy5pWW9fuEOP8ObhvvwX;https://drive.google.com/file/d/1qEX_YPEBKOZSZy5pWW9fuEOP8ObhvvwX/view?usp=sharing
151;25.02.2022;12:17:45;2022;50.0877839722222;14.404828;Praga;https://drive.google.com/thumbnail?id=1NN9Zk0fr-UyEUCEsYBFoRbu4amCb7U0v;https://drive.google.com/file/d/1NN9Zk0fr-UyEUCEsYBFoRbu4amCb7U0v/view?usp=sharing
152;25.02.2022;14:24:06;2022;50.0875109722222;14.4097349722222;Praga;https://drive.google.com/thumbnail?id=1PYB0X9cAUskYdFtGywV-ttw_x4dhOMeM;https://drive.google.com/file/d/1PYB0X9cAUskYdFtGywV-ttw_x4dhOMeM/view?usp=sharing
153;25.02.2022;14:11:30;2022;50.0879419722222;14.409525;Praga;https://drive.google.com/thumbnail?id=1S_oe924jWBYz-dzpwOsYcZUuuK81Lbmx;https://drive.google.com/file/d/1S_oe924jWBYz-dzpwOsYcZUuuK81Lbmx/view?usp=sharing
154;24.02.2022;20:14:28;2022;50.087704;14.4054739722222;Praga;https://drive.google.com/thumbnail?id=1dw_ZrPhZu8rydVw6G_qZsZ63vXSsKf01;https://drive.google.com/file/d/1dw_ZrPhZu8rydVw6G_qZsZ63vXSsKf01/view?usp=sharing
155;25.02.2022;11:34:53;2022;50.0877809722222;14.404868;Praga;https://drive.google.com/thumbnail?id=1gmVbx_9Yar3jK_KMJ-s4vYGbejGG6FRI;https://drive.google.com/file/d/1gmVbx_9Yar3jK_KMJ-s4vYGbejGG6FRI/view?usp=sharing
156;25.02.2022;13:31:23;2022;50.0877589722222;14.40554;Praga;https://drive.google.com/thumbnail?id=1iQ6Pln_i7L9dluY3SpQhOWnLNHsLVwoh;https://drive.google.com/file/d/1iQ6Pln_i7L9dluY3SpQhOWnLNHsLVwoh/view?usp=sharing
157;24.02.2022;19:56:52;2022;50.0874009722222;14.403596;Praga;https://drive.google.com/thumbnail?id=14DAFjuACtDU7wGkAhTH1twH0qcn6LfLK;https://drive.google.com/file/d/14DAFjuACtDU7wGkAhTH1twH0qcn6LfLK/view?usp=sharing
158;24.02.2022;20:01:20;2022;50.0870689722222;14.40736;Praga;https://drive.google.com/thumbnail?id=1APpmhLiSiGSO5IE_Zsg2H-Z6Fbx1Te5r;https://drive.google.com/file/d/1APpmhLiSiGSO5IE_Zsg2H-Z6Fbx1Te5r/view?usp=sharing
159;24.02.2022;19:58:59;2022;50.0875389722222;14.4051829722222;Praga;https://drive.google.com/thumbnail?id=1QbTo3SL0a6YNn5NQa79RgC2H4qVSuZ5F;https://drive.google.com/file/d/1QbTo3SL0a6YNn5NQa79RgC2H4qVSuZ5F/view?usp=sharing
160;24.02.2022;20:03:05;2022;50.086862;14.4085629722222;Praga;https://drive.google.com/thumbnail?id=1VMUw0oY90qJKmMsajbTR4Gn4qaS_MhVI;https://drive.google.com/file/d/1VMUw0oY90qJKmMsajbTR4Gn4qaS_MhVI/view?usp=sharing
161;24.02.2022;17:50:03;2022;50.0863269722222;14.4122109722222;Praga;https://drive.google.com/thumbnail?id=1xPwOQZAoFZ3qdH35_g6k06ZMIbBxfu2k;https://drive.google.com/file/d/1xPwOQZAoFZ3qdH35_g6k06ZMIbBxfu2k/view?usp=sharing
162;24.02.2022;19:19:56;2022;50.087533;14.4027309722222;Praga;https://drive.google.com/thumbnail?id=1pkt5TTHAKqzprsVVKN0x0FTf6NAyCAVn;https://drive.google.com/file/d/1pkt5TTHAKqzprsVVKN0x0FTf6NAyCAVn/view?usp=sharing
163;24.02.2022;17:45:52;2022;50.086241;14.413512;Praga;https://drive.google.com/thumbnail?id=14YOzY7jSEc49_bzEU_PrTG39ogoE05xd;https://drive.google.com/file/d/14YOzY7jSEc49_bzEU_PrTG39ogoE05xd/view?usp=sharing
164;24.02.2022;17:45:05;2022;50.0862249722222;14.413866;Praga;https://drive.google.com/thumbnail?id=15sX-033OoJZiHLjJHm2QPbEguEgKT-TN;https://drive.google.com/file/d/15sX-033OoJZiHLjJHm2QPbEguEgKT-TN/view?usp=sharing
165;24.02.2022;17:15:43;2022;50.0868919722222;14.4207809722222;Praga;https://drive.google.com/thumbnail?id=1xmWStA4eQF4OFNFtsc0eZWwg7QFwhnjK;https://drive.google.com/file/d/1xmWStA4eQF4OFNFtsc0eZWwg7QFwhnjK/view?usp=sharing
166;24.02.2022;17:00:10;2022;50.087257;14.4212679722222;Praga;https://drive.google.com/thumbnail?id=10IVJ0R_j8ZXBFjlPCbiY_Exv1JWG21pU;https://drive.google.com/file/d/10IVJ0R_j8ZXBFjlPCbiY_Exv1JWG21pU/view?usp=sharing
167;24.02.2022;16:26:55;2022;50.087031;14.4078839722222;Praga;https://drive.google.com/thumbnail?id=17DNqhFyuRstcoy3SJrN6BjpbTdBwpCFW;https://drive.google.com/file/d/17DNqhFyuRstcoy3SJrN6BjpbTdBwpCFW/view?usp=sharing
168;24.02.2022;16:59:33;2022;50.087228;14.421371;Praga;https://drive.google.com/thumbnail?id=1Z-2wolphG8w7QHwMmyn4htQDciamMZ76;https://drive.google.com/file/d/1Z-2wolphG8w7QHwMmyn4htQDciamMZ76/view?usp=sharing
169;24.02.2022;16:55:00;2022;50.0866929722222;14.4205539722222;Praga;https://drive.google.com/thumbnail?id=1m__-PmLUiZIR6hBisYX1diQbva_rf-cA;https://drive.google.com/file/d/1m__-PmLUiZIR6hBisYX1diQbva_rf-cA/view?usp=sharing
170;24.02.2022;16:42:06;2022;50.086232;14.4129349722222;Praga;https://drive.google.com/thumbnail?id=1raQqia-tqnQc-iGiY-LhPYesxXXe18DE;https://drive.google.com/file/d/1raQqia-tqnQc-iGiY-LhPYesxXXe18DE/view?usp=sharing
171;24.02.2022;16:32:26;2022;50.0866979722222;14.4094519722222;Praga;https://drive.google.com/thumbnail?id=1ApttPS7DORxeM7VvY0iHQmj7DRA6Lnxs;https://drive.google.com/file/d/1ApttPS7DORxeM7VvY0iHQmj7DRA6Lnxs/view?usp=sharing
172;24.02.2022;16:35:07;2022;50.086593;14.409955;Praga;https://drive.google.com/thumbnail?id=1dFpz2vfokFm7QuFkc_oSYrtb50g16zyx;https://drive.google.com/file/d/1dFpz2vfokFm7QuFkc_oSYrtb50g16zyx/view?usp=sharing
173;24.02.2022;16:27:17;2022;50.087;14.407828;Praga;https://drive.google.com/thumbnail?id=1uEe3bayDQ0wa2c6C9OqH03wzCbYv9ZGi;https://drive.google.com/file/d/1uEe3bayDQ0wa2c6C9OqH03wzCbYv9ZGi/view?usp=sharing
174.jpg;11.12.2021;12:38:06;2021;51.116556;17.0411949722222;Wroclaw;https://drive.google.com/thumbnail?id=1EnnZedXpiyl5fXShvwZfWw_VmoJ5F8qJ;https://drive.google.com/file/d/1EnnZedXpiyl5fXShvwZfWw_VmoJ5F8qJ/view?usp=sharing
175.jpg;10.12.2021;17:20:38;2021;51.10913;17.0330119722222;Wroclaw;https://drive.google.com/thumbnail?id=1kNPb84Oi1vN_V9Arii29EMUvo9X4_7O6;https://drive.google.com/file/d/1kNPb84Oi1vN_V9Arii29EMUvo9X4_7O6/view?usp=sharing
176.jpg;10.12.2021;17:17:47;2021;51.109161;17.032941;Wroclaw;https://drive.google.com/thumbnail?id=1nIdbYYeHEM1sUupYmqqOAYmWrnVRwCwm;https://drive.google.com/file/d/1nIdbYYeHEM1sUupYmqqOAYmWrnVRwCwm/view?usp=sharing
177.jpg;10.12.2021;17:04:46;2021;51.109385;17.0329249722222;Wroclaw;https://drive.google.com/thumbnail?id=1GvE3zl1KL8_8_goIIYXsyKmAv8qo9jJv;https://drive.google.com/file/d/1GvE3zl1KL8_8_goIIYXsyKmAv8qo9jJv/view?usp=sharing
178.jpg;10.12.2021;16:55:15;2021;51.1094829722222;17.0328729722222;Wroclaw;https://drive.google.com/thumbnail?id=1h8Ofg2IaiaWJ7CW3ynbTjfgaAB9Ah5P-;https://drive.google.com/file/d/1h8Ofg2IaiaWJ7CW3ynbTjfgaAB9Ah5P-/view?usp=sharing
179.jpg;10.12.2021;14:28:15;2021;51.1095949722222;17.034675;Wroclaw;https://drive.google.com/thumbnail?id=1ipBQ7iYdohR-TtxHZtyUqu7lq0uw0Fx_;https://drive.google.com/file/d/1ipBQ7iYdohR-TtxHZtyUqu7lq0uw0Fx_/view?usp=sharing
180.jpg;10.12.2021;14:15:16;2021;51.1097529722222;17.035695;Wroclaw;https://drive.google.com/thumbnail?id=1Af3xZo7GHQQV47WNqh961CVK_VER-HB7;https://drive.google.com/file/d/1Af3xZo7GHQQV47WNqh961CVK_VER-HB7/view?usp=sharing
181.jpg;10.12.2021;13:07:52;2021;51.104565;17.076039;Wroclaw;https://drive.google.com/thumbnail?id=1M1dV-RmlVDg2mbjqd3lBPQ8iNZraenbc;https://drive.google.com/file/d/1M1dV-RmlVDg2mbjqd3lBPQ8iNZraenbc/view?usp=sharing
182.jpg;10.12.2021;13:13:51;2021;51.10396;17.07385;Wroclaw;https://drive.google.com/thumbnail?id=1ReIettFJKrgFVO5nw07A-CIQz2FkWO_k;https://drive.google.com/file/d/1ReIettFJKrgFVO5nw07A-CIQz2FkWO_k/view?usp=sharing
183.jpg;10.12.2021;12:46:24;2021;51.107686;17.072872;Wroclaw;https://drive.google.com/thumbnail?id=1IypLP5VQy7O5MNE2gkfq46owAvP3SWGB;https://drive.google.com/file/d/1IypLP5VQy7O5MNE2gkfq46owAvP3SWGB/view?usp=sharing
184.jpg;10.12.2021;12:59:24;2021;51.104055;17.0754769722222;Wroclaw;https://drive.google.com/thumbnail?id=1lCn960pU8BgSXxfpwnxZwy5Jqa41iZSD;https://drive.google.com/file/d/1lCn960pU8BgSXxfpwnxZwy5Jqa41iZSD/view?usp=sharing
185.jpg;10.12.2021;12:35:23;2021;51.107686;17.072872;Wroclaw;https://drive.google.com/thumbnail?id=10ff3wed_YH_-DVoFOQsNH6og5Cb8AZHK;https://drive.google.com/file/d/10ff3wed_YH_-DVoFOQsNH6og5Cb8AZHK/view?usp=sharing
186.jpg;10.12.2021;12:06:53;2021;51.1057819722222;17.0776129722222;Wroclaw;https://drive.google.com/thumbnail?id=1dxEJ2QcCtFRHWtVe7oOt8s18QfuqLiOO;https://drive.google.com/file/d/1dxEJ2QcCtFRHWtVe7oOt8s18QfuqLiOO/view?usp=sharing
187.jpg;09.12.2021;21:37:50;2021;51.109675;17.0308519722222;Wroclaw;https://drive.google.com/thumbnail?id=1dC44ad3iYowseYXb-PFnabXb7Xw5hlvJ;https://drive.google.com/file/d/1dC44ad3iYowseYXb-PFnabXb7Xw5hlvJ/view?usp=sharing
188.jpg;09.12.2021;21:37:52;2021;51.1096679722222;17.03085;Wroclaw;https://drive.google.com/thumbnail?id=1dH86h-3oDMQ9r28ypSU001cL3SWB4dUE;https://drive.google.com/file/d/1dH86h-3oDMQ9r28ypSU001cL3SWB4dUE/view?usp=sharing
189.jpg;09.12.2021;21:36:26;2021;51.1099979722222;17.0306899722222;Wroclaw;https://drive.google.com/thumbnail?id=1rX9n61N9BT0IzqK8KjCyboDDjfQb0bS8;https://drive.google.com/file/d/1rX9n61N9BT0IzqK8KjCyboDDjfQb0bS8/view?usp=sharing
190.jpg;09.12.2021;21:34:38;2021;51.1102599722222;17.0307679722222;Wroclaw;https://drive.google.com/thumbnail?id=1yEncs4SJr5zT_-zAFM3vd5P4-UPOkxiP;https://drive.google.com/file/d/1yEncs4SJr5zT_-zAFM3vd5P4-UPOkxiP/view?usp=sharing
191.jpg;09.12.2021;21:16:37;2021;51.110314;17.0330849722222;Wroclaw;https://drive.google.com/thumbnail?id=11Xrp6U63gLe-b5njHeedDefpvJbJd7q9;https://drive.google.com/file/d/11Xrp6U63gLe-b5njHeedDefpvJbJd7q9/view?usp=sharing
192.jpg;09.12.2021;21:32:59;2021;51.1107459722222;17.0314049722222;Wroclaw;https://drive.google.com/thumbnail?id=16JxHjIsNQXFTsj-HACTrFlzA8HqGxQKA;https://drive.google.com/file/d/16JxHjIsNQXFTsj-HACTrFlzA8HqGxQKA/view?usp=sharing
193.jpg;09.12.2021;21:15:45;2021;51.110306;17.0330669722222;Wroclaw;https://drive.google.com/thumbnail?id=1O5V0HKb0Ih475xEwjuH04TruPuHxayOQ;https://drive.google.com/file/d/1O5V0HKb0Ih475xEwjuH04TruPuHxayOQ/view?usp=sharing
194.jpg;09.12.2021;21:26:28;2021;51.110312;17.0332289722222;Wroclaw;https://drive.google.com/thumbnail?id=1dS8zC10BdehajMFczIkedtcmj-tcbt9t;https://drive.google.com/file/d/1dS8zC10BdehajMFczIkedtcmj-tcbt9t/view?usp=sharing
195.jpg;09.12.2021;21:07:41;2021;51.109321;17.0328389722222;Wroclaw;https://drive.google.com/thumbnail?id=19DOjVRbQ0YllTqImfJx1Q58vFIhSmnjF;https://drive.google.com/file/d/19DOjVRbQ0YllTqImfJx1Q58vFIhSmnjF/view?usp=sharing
196.jpg;09.12.2021;20:50:36;2021;51.1090689722222;17.0328839722222;Wroclaw;https://drive.google.com/thumbnail?id=1gZg8rZc1whHALa3mqqXCW_qfFAYE4Qc-;https://drive.google.com/file/d/1gZg8rZc1whHALa3mqqXCW_qfFAYE4Qc-/view?usp=sharing
197.jpg;09.12.2021;20:59:37;2021;51.1096089722222;17.032924;Wroclaw;https://drive.google.com/thumbnail?id=1gj0kBay9FckYlZ1yev4pPt0cChavCDdr;https://drive.google.com/file/d/1gj0kBay9FckYlZ1yev4pPt0cChavCDdr/view?usp=sharing
198.jpg;09.12.2021;19:24:33;2021;51.0937219722222;17.0206599722222;Wroclaw;https://drive.google.com/thumbnail?id=1DbCHE6qW1bsPd9vEiJYmdUx_KMdHpaOa;https://drive.google.com/file/d/1DbCHE6qW1bsPd9vEiJYmdUx_KMdHpaOa/view?usp=sharing
199.jpg;09.12.2021;20:46:12;2021;51.107644;17.0322339722222;Wroclaw;https://drive.google.com/thumbnail?id=1JxOLrTjP7EZIkLtxW6P8p2oU0FHrH9eM;https://drive.google.com/file/d/1JxOLrTjP7EZIkLtxW6P8p2oU0FHrH9eM/view?usp=sharing
200.jpg;09.12.2021;19:04:06;2021;51.051555;16.9765189722222;Wroclaw;https://drive.google.com/thumbnail?id=1NbRlXyDgGwafJa4iUZuI2FOFOxWIW75n;https://drive.google.com/file/d/1NbRlXyDgGwafJa4iUZuI2FOFOxWIW75n/view?usp=sharing
201.jpg;09.12.2021;11:17:02;2021;51.0995879722222;17.037939;Wroclaw;https://drive.google.com/thumbnail?id=14FGtqB-V-gVh7QVe4iKM4KTtwIjMSXQ9;https://drive.google.com/file/d/14FGtqB-V-gVh7QVe4iKM4KTtwIjMSXQ9/view?usp=sharing
202.jpg;11.12.2021;14:38:13;2021;51.1699339722222;17.1676569722222;Wroclaw;https://drive.google.com/thumbnail?id=1KuHAQGxBGnziqMMPFnFTyIckCR7Lz4Wy;https://drive.google.com/file/d/1KuHAQGxBGnziqMMPFnFTyIckCR7Lz4Wy/view?usp=sharing
